{
  "version": 0.6,
  "generator": "Overpass API 0.7.62.8 e802775f",
  "osm3s": {
    "timestamp_osm_base": "2025-12-05T09:48:50Z",
    "copyright": "The data included in this document is from www.openstreetmap.org. The data is made available under ODbL."
  },
  "elements": [
    {
      "type": "node",
      "id": 357624866,
      "lat": 40.6352707,
      "lon": -74.1037705,
      "tags": {
        "addr:city": "West Brighton",
        "addr:housenumber": "669",
        "addr:postcode": "10301",
        "addr:street": "Castleton Avenue",
        "amenity": "doctors",
        "gnis:feature_id": "2100510",
        "healthcare": "doctor",
        "healthcare:speciality": "psychiatry",
        "name": "Chait Mental Health Center",
        "phone": "+1 718 442 2225",
        "website": "https://simhs.org/behavioral-health-services/"
      }
    },
    {
      "type": "node",
      "id": 367696699,
      "lat": 40.7642794,
      "lon": -74.2083758,
      "tags": {
        "addr:state": "NJ",
        "ele": "50",
        "gnis:feature_id": "2056473",
        "healthcare": "psychotherapist",
        "healthcare:speciality": "mental_health",
        "name": "Eden House for the Mentally Retarded",
        "source": "USGS Geonames"
      }
    },
    {
      "type": "node",
      "id": 702331265,
      "lat": 40.6430379,
      "lon": -74.1043496,
      "tags": {
        "healthcare": "counselling",
        "healthcare:speciality": "grief_counseling",
        "name": "Emma's Place",
        "operator": "Emma's Place",
        "website": "https://emmasplacesi.org/",
        "wheelchair": "limited"
      }
    },
    {
      "type": "node",
      "id": 2494123518,
      "lat": 40.6806974,
      "lon": -73.9992254,
      "tags": {
        "healthcare": "psychotherapist",
        "name": "Carroll Gardens Psychotherapy",
        "operator": "Kathyrn Sennis, C.S.W.",
        "phone": "+1-718-243-1432"
      }
    },
    {
      "type": "node",
      "id": 2494292239,
      "lat": 40.6747581,
      "lon": -73.9913618,
      "tags": {
        "healthcare": "counselling",
        "healthcare:counselling": "addiction",
        "name": "RevCore",
        "opening_hours": "Mo-Fr 09:00-19:30; Sa 08:00-13:00",
        "phone": "+1-718-514-6007",
        "website": "https://revcorerecovery.com"
      }
    },
    {
      "type": "node",
      "id": 2543385962,
      "lat": 40.5850349,
      "lon": -74.1604113,
      "tags": {
        "addr:city": "Staten Island",
        "addr:housenumber": "251",
        "addr:postcode": "10314",
        "addr:state": "NY",
        "addr:street": "Richmond Hill Road",
        "healthcare": "psychotherapist",
        "healthcare:speciality": "psychotherapy",
        "name": "Heartland Psychological Services",
        "phone": "+1-718-494-9397"
      }
    },
    {
      "type": "node",
      "id": 2550092446,
      "lat": 40.661148,
      "lon": -73.9804334,
      "tags": {
        "addr:housenumber": "200",
        "addr:postcode": "11215",
        "addr:street": "Prospect Park West",
        "healthcare": "psychotherapist",
        "name": "Mind Body Seven",
        "phone": "+1-212-621-7770",
        "website": "https://www.mindbody7.com"
      }
    },
    {
      "type": "node",
      "id": 2552890686,
      "lat": 40.5796408,
      "lon": -73.9640279,
      "tags": {
        "addr:city": "Brooklyn",
        "addr:housenumber": "2955",
        "addr:postcode": "11235",
        "addr:state": "NY",
        "addr:street": "Brighton 4th Street",
        "amenity": "clinic",
        "check_date": "2022-06-26",
        "email": "fs@firststepny.com",
        "fax": "+1-718-332-3365",
        "healthcare": "clinic",
        "healthcare:speciality": "child_psychiatry;paediatrics",
        "name": "First Step Children Center",
        "opening_hours": "Mo-Fr 09:00-17:30; Sa off; Su off",
        "operator:type": "private",
        "phone": "+1 718-509-4909;+1 718-332-0080;+1 718-307-5680",
        "source": "survey",
        "website": "https://www.firststepny.com/",
        "wheelchair": "yes"
      }
    },
    {
      "type": "node",
      "id": 2562140918,
      "lat": 40.6633931,
      "lon": -73.9780815,
      "tags": {
        "addr:housenumber": "163",
        "addr:postcode": "11215",
        "addr:street": "Prospect Park West",
        "healthcare": "psychotherapist",
        "name": "Interactive Discovery",
        "phone": "+1-347-335-0165"
      }
    },
    {
      "type": "node",
      "id": 2568849019,
      "lat": 40.6781615,
      "lon": -73.973411,
      "tags": {
        "addr:housenumber": "300",
        "addr:postcode": "11217",
        "addr:street": "Flatbush Avenue",
        "fax": "+1-718-398-3328",
        "healthcare": "psychotherapist",
        "level": "1",
        "name": "Brooklyn Center for Psychotherapy",
        "phone": "+1-718-622-2000",
        "website": "https://newdirectionsbrooklyn.com"
      }
    }
  ]
}